[{"id":1,"name":"Sycamore","latitude":"-8.0414","longtitude":"113.8293"},
{"id":2,"name":"7th","latitude":"-7.62333","longtitude":"109.14861"},
{"id":3,"name":"Ridgeway","latitude":"-7.0502","longtitude":"112.4574"},
{"id":4,"name":"Cascade","latitude":"27.78777","longtitude":"105.14573"},
{"id":5,"name":"Huxley","latitude":"-0.49886","longtitude":"37.28031"},
{"id":6,"name":"Helena","latitude":"-8.1839","longtitude":"113.7036"},
{"id":7,"name":"Fieldstone","latitude":"-6.13603","longtitude":"23.58979"},
{"id":8,"name":"Kropf","latitude":"44.4","longtitude":"131.16667"},
{"id":9,"name":"Talisman","latitude":"45.91995","longtitude":"20.01766"},
{"id":10,"name":"Grover","latitude":"39.9833","longtitude":"-8.35"},
{"id":11,"name":"Sommers","latitude":"-6.9783","longtitude":"111.6852"},
{"id":12,"name":"Dorton","latitude":"41.82","longtitude":"41.77528"},
{"id":13,"name":"Northview","latitude":"41.0932","longtitude":"-8.5045"},
{"id":14,"name":"Messerschmidt","latitude":"-8.1141","longtitude":"111.7762"},
{"id":15,"name":"Petterle","latitude":"-8.144","longtitude":"111.4392"},
{"id":16,"name":"Grim","latitude":"48.66306","longtitude":"102.62278"},
{"id":17,"name":"Algoma","latitude":"43.06417","longtitude":"141.34694"},
{"id":18,"name":"Arizona","latitude":"-20.55722","longtitude":"-48.56778"},
{"id":19,"name":"Almo","latitude":"32.76272","longtitude":"21.75506"},
{"id":20,"name":"Steensland","latitude":"-14.79847","longtitude":"-73.92438"},
{"id":21,"name":"2nd","latitude":"46.54056","longtitude":"15.39306"},
{"id":22,"name":"Logan","latitude":"25.12614","longtitude":"115.63763"},
{"id":23,"name":"Arrowood","latitude":"-7.0991","longtitude":"106.9221"},
{"id":24,"name":"Maple Wood","latitude":"27.76344","longtitude":"98.71105"},
{"id":25,"name":"Londonderry","latitude":"14.5","longtitude":"-89.65"},
{"id":26,"name":"Evergreen","latitude":"38.32232","longtitude":"114.22928"},
{"id":27,"name":"Buell","latitude":"45.5598","longtitude":"5.9687"},
{"id":28,"name":"Fremont","latitude":"38.76829","longtitude":"76.31012"},
{"id":29,"name":"Lillian","latitude":"25.87308","longtitude":"115.0108"},
{"id":30,"name":"Forest Dale","latitude":"50.65919","longtitude":"13.72676"},
{"id":31,"name":"Oxford","latitude":"-3.4109","longtitude":"114.8642"},
{"id":32,"name":"Express","latitude":"41.25","longtitude":"-8.4771"},
{"id":33,"name":"Swallow","latitude":"54.05","longtitude":"-2"},
{"id":34,"name":"Mallory","latitude":"50.22946","longtitude":"16.2923"},
{"id":35,"name":"Pepper Wood","latitude":"23.68477","longtitude":"-15.95798"},
{"id":36,"name":"Maywood","latitude":"55.36311","longtitude":"50.64244"},
{"id":37,"name":"International","latitude":"48.9085","longtitude":"2.3638"},
{"id":38,"name":"American Ash","latitude":"41.08889","longtitude":"21.01222"},
{"id":39,"name":"Trailsway","latitude":"37.3","longtitude":"22.5"},
{"id":40,"name":"Shoshone","latitude":"2.75992","longtitude":"117.08905"},
{"id":41,"name":"Jackson","latitude":"35.20944","longtitude":"127.46444"},
{"id":42,"name":"Boyd","latitude":"29.67543","longtitude":"120.81321"},
{"id":43,"name":"Scofield","latitude":"34.72807","longtitude":"135.30264"},
{"id":44,"name":"Trailsway","latitude":"28.91746","longtitude":"108.86704"},
{"id":45,"name":"Caliangt","latitude":"45.98333","longtitude":"14.57667"},
{"id":46,"name":"Blue Bill Park","latitude":"-6.3832","longtitude":"106.018"},
{"id":47,"name":"Golf View","latitude":"15.61444","longtitude":"-87.95302"},
{"id":48,"name":"Towne","latitude":"33.78198","longtitude":"105.27627"},
{"id":49,"name":"Mallard","latitude":"3.1071","longtitude":"101.6083"},
{"id":50,"name":"Ridgeway","latitude":"46.10995","longtitude":"48.07364"}]